[
  {
    "name": "스마트쉼터",
    "place": "성동구청 버스정류장 (04574)",
    "address": "서울 성동구 고산자로 280",
    "lat": 37.5640522,
    "lng": 127.0366761
  },
  {
    "name": "스마트쉼터",
    "place": "센트라스, 성동고방면 버스정류장 (04103)",
    "address": "서울 성동구 왕십리로 410",
    "lat": 37.5665507,
    "lng": 127.0247864
  },
  {
    "name": "스마트쉼터",
    "place": "상왕십리역 버스정류장 (04102)",
    "address": "서울 성동구 고산자로 164",
    "lat": 37.5549104,
    "lng": 127.0366365
  },
  {
    "name": "스마트쉼터",
    "place": "성동세무서 버스정류장 (04213)",
    "address": "서울 성동구 광나루로 311",
    "lat": 37.5483317,
    "lng": 127.0642519
  },
  {
    "name": "스마트쉼터",
    "place": "한양대정문 앞 버스정류장 (04130)",
    "address": "서울 성동구 왕십리로 222",
    "lat": 37.5575753,
    "lng": 127.0466899
  },
  {
    "name": "스마트쉼터",
    "place": "금호역 버스정류장 (04156)",
    "address": "서울 성동구 매봉길 50",
    "lat": 37.5475735,
    "lng": 127.0128776
  },
  {
    "name": "스마트쉼터",
    "place": "옥수파출소 앞 버스정류장 (04162)",
    "address": "서울 성동구 독서당로 211",
    "lat": 37.5438389,
    "lng": 127.014349
  },
  {
    "name": "스마트쉼터",
    "place": "신금호역 버스정류장 (04146)",
    "address": "서울 성동구 금호로 173",
    "lat": 37.5553875,
    "lng": 127.0185969
  },
  {
    "name": "스마트쉼터",
    "place": "응봉동주민센터 버스정류장 (04138)",
    "address": "서울 성동구 독서당로 424",
    "lat": 37.5531654,
    "lng": 127.0334186
  },
  {
    "name": "스마트쉼터",
    "place": "성수동이마트 버스정류장 (04198)",
    "address": "서울 성동구 뚝섬로 377",
    "lat": null,
    "lng": null
  },
  {
    "name": "스마트쉼터",
    "place": "무학여고 앞 버스정류장 (04132)",
    "address": "서울 성동구 고산자로 201",
    "lat": 37.5580548,
    "lng": 127.0337701
  },
  {
    "name": "스마트쉼터",
    "place": "마장축산물(도선사거리) 버스정류장 (04120)",
    "address": "서울 성동구 고산자로 340",
    "lat": 37.5697871,
    "lng": 127.0378925
  },
  {
    "name": "스마트쉼터",
    "place": "마장축산물(동대문) 버스정류장 (04119)",
    "address": "서울 성동구 고산자로 345",
    "lat": 37.5704812,
    "lng": 127.0374229
  },
  {
    "name": "스마트쉼터",
    "place": "용답동부시장,답십리역 버스정류장 (04218)",
    "address": "서울 성동구 천호대로 302",
    "lat": 37.5657475,
    "lng": 127.0537951
  },
  {
    "name": "스마트쉼터",
    "place": "행당역,대림아파트정문 버스정류장 (04280)",
    "address": "서울 성동구 행당로 87",
    "lat": 37.5573015,
    "lng": 127.0285419
  },
  {
    "name": "스마트쉼터",
    "place": "서울숲(구민종합체육센터) 버스정류장 (04177)",
    "address": "서울 성동구 왕십리로 58",
    "lat": 37.5427172,
    "lng": 127.0452444
  },
  {
    "name": "스마트쉼터",
    "place": "화양사거리(성수초) 버스정류장 (04207)",
    "address": "서울 성동구 동일로 169",
    "lat": 37.5475199,
    "lng": 127.0665395
  },
  {
    "name": "스마트쉼터",
    "place": "상왕십리역(왕십리2동주민센터) 버스정류장 (04101)",
    "address": "서울 성동구 왕십리로 369",
    "lat": 37.5642188,
    "lng": 127.0290141
  },
  {
    "name": "스마트쉼터",
    "place": "뚝섬역 3번5번출구 버스정류장 (04238)",
    "address": "서울 성동구 아차산로 42",
    "lat": 37.5464347,
    "lng": 127.0491001
  },
  {
    "name": "스마트쉼터",
    "place": "송정동건영아파트 버스정류장 (04215)",
    "address": "서울 성동구 동일로 265",
    "lat": 37.5553277,
    "lng": 127.0710961
  },
  {
    "name": "스마트쉼터",
    "place": "왕십리역 4번출구 버스정류장 (04302)",
    "address": "서울 성동구 행당동 192-3",
    "lat": 37.561705,
    "lng": 127.0370976
  },
  {
    "name": "스마트쉼터",
    "place": "성동교남단 버스정류장 (04185)",
    "address": "서울 성동구 왕십리로 136",
    "lat": 37.5496972,
    "lng": 127.0445831
  },
  {
    "name": "스마트쉼터",
    "place": "응봉사거리 버스정류장 (04140)",
    "address": "서울 성동구 고산자로 164",
    "lat": 37.5549104,
    "lng": 127.0366365
  },
  {
    "name": "스마트쉼터",
    "place": "코스모타워,신용보증재단 버스정류장 (04110)",
    "address": "서울 성동구 왕십리로 336",
    "lat": 37.563151,
    "lng": 127.0328462
  },
  {
    "name": "스마트쉼터",
    "place": "응봉현대아파트 버스정류장 (04142)",
    "address": "서울 성동구 독서당로 381",
    "lat": 37.5501948,
    "lng": 127.0306929
  },
  {
    "name": "스마트쉼터",
    "place": "행당역 버스정류장 (04279)",
    "address": "서울 성동구 행당로6길 97",
    "lat": 37.5571875,
    "lng": 127.0301587
  },
  {
    "name": "스마트쉼터",
    "place": "성동구민종합체육센터 버스정류장 (04180)",
    "address": "서울 성동구 왕십리로5길 3",
    "lat": 37.5464289,
    "lng": 127.0443064
  },
  {
    "name": "스마트쉼터",
    "place": "장미소공원 버스정류장 (04500)",
    "address": "서울 성동구 광나루로11길 54",
    "lat": 37.552137,
    "lng": 127.0687064
  },
  {
    "name": "스마트쉼터",
    "place": "마장역 버스정류장 (04117)",
    "address": "서울 성동구 마장로 292",
    "lat": 37.5654264,
    "lng": 127.0423371
  },
  {
    "name": "스마트쉼터",
    "place": "성동노인복지관 버스정류장 (04118)",
    "address": "서울 성동구 마조로 77",
    "lat": 37.5648346,
    "lng": 127.0415169
  },
  {
    "name": "스마트쉼터",
    "place": "성동사회복지관,청계천박물관 버스정류장 (04595)",
    "address": "서울 성동구 청계천로 506",
    "lat": 37.5702263,
    "lng": 127.0334753
  },
  {
    "name": "스마트쉼터",
    "place": "성동구도시관리공단 버스정류장 (04600)",
    "address": "서울 성동구 청계천로 546",
    "lat": 37.5717268,
    "lng": 127.0369167
  },
  {
    "name": "스마트쉼터",
    "place": "한양대앞, 한양시장 버스정류장 (04127)",
    "address": "서울 성동구 마조로 14",
    "lat": 37.5590147,
    "lng": 127.0411669
  },
  {
    "name": "스마트쉼터",
    "place": "광희중학교, 응봉역 버스정류장 (04821)",
    "address": "서울 성동구 응봉동 193",
    "lat": 37.5509331,
    "lng": 127.0340614
  },
  {
    "name": "스마트쉼터",
    "place": "논골신협대림아파트 후문 버스정류장 (04560)",
    "address": "서울 성동구 난계로 58",
    "lat": 37.5578523,
    "lng": 127.0246194
  },
  {
    "name": "스마트쉼터",
    "place": "삼성래미안아파트 버스정류장 (04160)",
    "address": "서울 성동구 독서당로 343",
    "lat": 37.5495791,
    "lng": 127.027307
  },
  {
    "name": "스마트쉼터",
    "place": "금호역(2번출구옆, 금호터널입구방면) 버스정류장 (04155)",
    "address": "서울 성동구 동호로2가길 9-10",
    "lat": 37.5477943,
    "lng": 127.0164315
  },
  {
    "name": "스마트쉼터",
    "place": "금호역(마을버스 정문) 버스정류장 (04764)",
    "address": "서울 성동구 동호로 102",
    "lat": 37.5488915,
    "lng": 127.0164321
  },
  {
    "name": "스마트쉼터",
    "place": "힐스테이트서울숲리버 버스정류장 (04159)",
    "address": "서울 성동구 독서당로 342",
    "lat": 37.547878,
    "lng": 127.0268904
  },
  {
    "name": "스마트쉼터",
    "place": "서울숲(똑도아리수정수센터) 버스정류장 (04178)",
    "address": "서울 성동구 왕십리로 63",
    "lat": 37.5435618,
    "lng": 127.0435817
  },
  {
    "name": "스마트쉼터",
    "place": "뚝섬역 4번출구 버스정류장 (04239)",
    "address": "서울 성동구 아차산로 41",
    "lat": 37.5469705,
    "lng": 127.0489912
  },
  {
    "name": "스마트쉼터",
    "place": "상원 버스정류장 (04187)",
    "address": "서울 성동구 광나루로 144",
    "lat": 37.5513,
    "lng": 127.0464354
  },
  {
    "name": "스마트쉼터",
    "place": "뚝섬역 2번출구 버스정류장 (04237)",
    "address": "서울 성동구 아차산로 17",
    "lat": 37.5479607,
    "lng": 127.0464405
  },
  {
    "name": "스마트쉼터",
    "place": "성수사거리 버스정류장 (04257)",
    "address": "서울 성동구 아차산로 163",
    "lat": 37.5429647,
    "lng": 127.0620934
  },
  {
    "name": "스마트쉼터",
    "place": "제인병원 버스정류장 (04211)",
    "address": "서울 성동구 광나루로 243",
    "lat": 37.5494673,
    "lng": 127.0569539
  },
  {
    "name": "스마트쉼터",
    "place": "군자교남단 버스정류장 (04216)",
    "address": "서울 성동구 동일로 291",
    "lat": 37.5576205,
    "lng": 127.0723627
  },
  {
    "name": "스마트쉼터",
    "place": "신답역 버스정류장 (04217)",
    "address": "서울 성동구 천호대로 232",
    "lat": 37.5699911,
    "lng": 127.0468202
  },
  {
    "name": "스마트쉼터",
    "place": "청계벽산아파트, 텐즈힐아파트버스정류장 (04107)",
    "address": "서울 성동구 하왕십리동 259-12",
    "lat": 37.5680885,
    "lng": 127.0301752
  },
  {
    "name": "스마트쉼터",
    "place": "황학교, 텐즈힐몰버스정류장 (04295)",
    "address": "서울 성동구 상왕십리동 16-4",
    "lat": 37.5706138,
    "lng": 127.0234982
  },
  {
    "name": "스마트쉼터",
    "place": "청계벽산아파트.텐즈힐아파트 버스정류장 (04106)",
    "address": "서울 성동구 하왕십리동 282-4",
    "lat": 37.5685924,
    "lng": 127.0301964
  },
  {
    "name": "스마트쉼터",
    "place": "상왕십리역?센트라스아파트 버스정류장 (04114)",
    "address": "서울 성동구 홍익동 590",
    "lat": 37.5659465,
    "lng": 127.0363144
  },
  {
    "name": "스마트쉼터",
    "place": "성동세무서앞 버스정류장 (04212)",
    "address": "서울 성동구 성수동2가 280-41",
    "lat": 37.5479054,
    "lng": 127.0620107
  },
  {
    "name": "스마트쉼터",
    "place": "뚝섬역 8번출구 버스정류장 (04236)",
    "address": "서울 성동구 성수동1가 656-853",
    "lat": 37.5478898,
    "lng": 127.045421
  }
]