[
  {
    "id": "sd-34-금호1가동주민센터|서울특별시성동구행당로15",
    "name": "금호1가동주민센터",
    "roadAddress": "서울특별시 성동구  행당로  15",
    "jibunAddress": "서울특별시 성동구 금호동1가 127-2",
    "lat": 37.5547709,
    "lng": 127.021754,
    "type": "SHELTER"
  },
  {
    "id": "sd-37-금호2-3가동주민센터|서울특별시성동구무수막1",
    "name": "금호2-3가동주민센터",
    "roadAddress": "서울특별시 성동구 무수막18길 1",
    "jibunAddress": "서울특별시 성동구 금호동2가 1212",
    "lat": 37.5531853,
    "lng": 127.020916,
    "type": "SHELTER"
  },
  {
    "id": "sd-42-금호4가동주민센터|서울특별시성동구독서당로46",
    "name": "금호4가동주민센터",
    "roadAddress": "서울특별시 성동구  독서당로46길  26",
    "jibunAddress": "서울특별시 성동구 금호동4가 803",
    "lat": 37.5471484,
    "lng": 127.022351,
    "type": "SHELTER"
  },
  {
    "id": "sd-43-금호독서당(책마루)|서울특별시성동구금호로30",
    "name": "금호독서당(책마루)",
    "roadAddress": "서울특별시 성동구 금호로 30",
    "jibunAddress": "서울특별시 성동구 금호동4가 56",
    "lat": 37.5456162,
    "lng": 127.025146,
    "type": "SHELTER"
  },
  {
    "id": "sd-36-금호역(현대아파트)스마트쉼터|서울특별시성동구",
    "name": "금호역(현대아파트)스마트쉼터",
    "roadAddress": "",
    "jibunAddress": "서울특별시 성동구 금호동3가 1583",
    "lat": 37.548552,
    "lng": 127.0152783,
    "type": "SMART"
  },
  {
    "id": "sd-56-뚝섬역3번5번출구(성수역)스마트쉼터|서울특별",
    "name": "뚝섬역3번5번출구(성수역)스마트쉼터",
    "roadAddress": "",
    "jibunAddress": "서울특별시 성동구 성수동1가 14-22",
    "lat": 37.5464658,
    "lng": 127.0492968,
    "type": "SMART"
  },
  {
    "id": "sd-14-마장동주민센터|서울특별시성동구마장로42길11",
    "name": "마장동주민센터",
    "roadAddress": "서울특별시 성동구 마장로42길 11",
    "jibunAddress": "서울특별시 성동구 마장동 780-2",
    "lat": 37.5663242,
    "lng": 127.045289,
    "type": "SHELTER"
  },
  {
    "id": "sd-12-마장축산물시장(도선사거리)스마트쉼터|서울특별",
    "name": "마장축산물시장(도선사거리)스마트쉼터",
    "roadAddress": "서울특별시 성동구 고산자로 344-1  (마장동)",
    "jibunAddress": "서울특별시 성동구 마장동 474-28",
    "lat": 37.5702886,
    "lng": 127.0375139,
    "type": "SMART"
  },
  {
    "id": "sd-13-마장축산물시장(동대문구청.용두역3번출구)스마",
    "name": "마장축산물시장(동대문구청.용두역3번출구)스마트쉼터",
    "roadAddress": "서울특별시 성동구 고산자로 344-1  (마장동)",
    "jibunAddress": "서울특별시 성동구 마장동 474-28",
    "lat": 37.5709837,
    "lng": 127.0380101,
    "type": "SMART"
  },
  {
    "id": "sd-27-무학여고(행당신동아.행당푸르지오아파트)스마트",
    "name": "무학여고(행당신동아.행당푸르지오아파트)스마트쉼터",
    "roadAddress": "",
    "jibunAddress": "서울특별시 성동구 행당동 320-18",
    "lat": 37.5578891,
    "lng": 127.033866,
    "type": "SMART"
  },
  {
    "id": "sd-16-사근동주민센터|서울특별시성동구사근동길37",
    "name": "사근동주민센터",
    "roadAddress": "서울특별시 성동구 사근동길 37",
    "jibunAddress": "서울특별시 성동구 사근동 223-22",
    "lat": 37.561498,
    "lng": 127.045311,
    "type": "SHELTER"
  },
  {
    "id": "sd-2-상왕십리역(왕십리2동주민센터)스마트쉼터|서울",
    "name": "상왕십리역(왕십리2동주민센터)스마트쉼터",
    "roadAddress": "",
    "jibunAddress": "서울특별시 성동구 하왕십리동 903-1",
    "lat": 37.5643591,
    "lng": 127.0290408,
    "type": "SMART"
  },
  {
    "id": "sd-6-상왕십리역(왕십리센트라스아파트)스마트쉼터|서",
    "name": "상왕십리역(왕십리센트라스아파트)스마트쉼터",
    "roadAddress": "",
    "jibunAddress": "서울특별시 성동구 하왕십리동 860-1",
    "lat": 37.5647142,
    "lng": 127.0287189,
    "type": "SMART"
  },
  {
    "id": "sd-47-서울숲역2번출구(성동구민종합체육센터)스마트쉼",
    "name": "서울숲역2번출구(성동구민종합체육센터)스마트쉼터",
    "roadAddress": "",
    "jibunAddress": "서울특별시 성동구 성수동1가 656-1976",
    "lat": 37.5428845,
    "lng": 127.0446566,
    "type": "SHELTER"
  },
  {
    "id": "sd-55-성동교남단(한양대정문앞)스마트쉼터|서울특별시",
    "name": "성동교남단(한양대정문앞)스마트쉼터",
    "roadAddress": "서울특별시 성동구 아차산로 2-1  (성수동1가)",
    "jibunAddress": "서울특별시 성동구 성수동1가 656-853",
    "lat": 37.5495791,
    "lng": 127.0444715,
    "type": "SMART"
  },
  {
    "id": "sd-54-성동구민종합체육센터(서울숲)스마트쉼터|서울특",
    "name": "성동구민종합체육센터(서울숲)스마트쉼터",
    "roadAddress": "서울특별시 성동구 왕십리로5길 10  (성수동1가)",
    "jibunAddress": "서울특별시 성동구 성수동1가 656-551",
    "lat": 37.5465849,
    "lng": 127.04456,
    "type": "SHELTER"
  },
  {
    "id": "sd-18-성동구청(성동교육청앞)스마트쉼터|서울특별시성",
    "name": "성동구청(성동교육청앞)스마트쉼터",
    "roadAddress": "서울특별시 성동구 고산자로 280  (행당동)",
    "jibunAddress": "서울특별시 성동구 행당동 7",
    "lat": 37.5640466,
    "lng": 127.0364222,
    "type": "SMART"
  },
  {
    "id": "sd-22-성동구청(책마루)|서울특별시성동구고산자로27",
    "name": "성동구청(책마루)",
    "roadAddress": "서울특별시 성동구 고산자로 270",
    "jibunAddress": "서울특별시 성동구 행당동 7",
    "lat": 37.563319,
    "lng": 127.036734,
    "type": "SHELTER"
  },
  {
    "id": "sd-68-성동세무서(제인병원)스마트쉼터|서울특별시성동",
    "name": "성동세무서(제인병원)스마트쉼터",
    "roadAddress": "",
    "jibunAddress": "서울특별시 성동구 송정동 66-30",
    "lat": 37.5482734,
    "lng": 127.064175,
    "type": "SMART"
  },
  {
    "id": "sd-48-성수1가1동주민센터|서울특별시성동구뚝섬로3길",
    "name": "성수1가1동주민센터",
    "roadAddress": "서울특별시 성동구 뚝섬로3길 18",
    "jibunAddress": "서울특별시 성동구 성수동1가 27-23",
    "lat": 37.5419777,
    "lng": 127.049631,
    "type": "SHELTER"
  },
  {
    "id": "sd-57-성수1가2동주민센터|서울특별시성동구왕십리로5",
    "name": "성수1가2동주민센터",
    "roadAddress": "서울특별시 성동구 왕십리로5길 3",
    "jibunAddress": "서울특별시 성동구 성수동1가 685-580",
    "lat": 37.5462505,
    "lng": 127.044372,
    "type": "SHELTER"
  },
  {
    "id": "sd-58-성수2가1동주민센터|서울특별시성동구뚝섬로38",
    "name": "성수2가1동주민센터",
    "roadAddress": "서울특별시 성동구 뚝섬로 385-19",
    "jibunAddress": "서울특별시 성동구 성수동2가 333-134",
    "lat": 37.5395071,
    "lng": 127.054065,
    "type": "SHELTER"
  },
  {
    "id": "sd-63-성수2가3동주민센터|서울특별시성동구광나루로2",
    "name": "성수2가3동주민센터",
    "roadAddress": "서울특별시 성동구 광나루로2길 35",
    "jibunAddress": "서울특별시 성동구 성수동2가 299-240",
    "lat": 37.5482283,
    "lng": 127.055112,
    "type": "SHELTER"
  },
  {
    "id": "sd-49-성수아트홀(책마루)|서울특별시성동구뚝섬로1길",
    "name": "성수아트홀(책마루)",
    "roadAddress": "서울특별시 성동구 뚝섬로1길 43",
    "jibunAddress": "서울특별시 성동구 성수동1가 656-323",
    "lat": 37.5454026,
    "lng": 127.046951,
    "type": "SHELTER"
  },
  {
    "id": "sd-67-송정동건영아파트(송정동서울숲아이파크)스마트쉼",
    "name": "송정동건영아파트(송정동서울숲아이파크)스마트쉼터",
    "roadAddress": "서울특별시 성동구 동일로 265  (송정동)",
    "jibunAddress": "서울특별시 성동구 송정동 90-7",
    "lat": 37.5552907,
    "lng": 127.0712024,
    "type": "SMART"
  },
  {
    "id": "sd-69-송정동주민센터|서울특별시성동구동일로43길13",
    "name": "송정동주민센터",
    "roadAddress": "서울특별시 성동구  동일로43길  13   (송정동)",
    "jibunAddress": "서울특별시 성동구 송정동 72-31",
    "lat": 37.5545908,
    "lng": 127.069546,
    "type": "SHELTER"
  },
  {
    "id": "sd-66-송정동현대아이파크아파트(송정동자치회관)스마트",
    "name": "송정동현대아이파크아파트(송정동자치회관)스마트쉼터",
    "roadAddress": "",
    "jibunAddress": "서울특별시 성동구 송정동 1-129",
    "lat": 37.5521862,
    "lng": 127.0686784,
    "type": "SMART"
  },
  {
    "id": "sd-35-신금호역(금호고등학교.금호자이1차아파트입구)",
    "name": "신금호역(금호고등학교.금호자이1차아파트입구)스마트쉼터",
    "roadAddress": "서울특별시 성동구 금호로 173  (금호동2가, 신금호파크자이)",
    "jibunAddress": "서울특별시 성동구 금호동2가 1",
    "lat": 37.5556394,
    "lng": 127.0198059,
    "type": "SMART"
  },
  {
    "id": "sd-45-옥수동주민센터|서울특별시성동구독서당로203(",
    "name": "옥수동주민센터",
    "roadAddress": "서울특별시 성동구 독서당로 203 (옥수동)",
    "jibunAddress": "서울특별시 성동구 옥수동 428-5",
    "lat": 37.5436331,
    "lng": 127.0135188,
    "type": "SHELTER"
  },
  {
    "id": "sd-44-옥수삼성아파트.래미안옥수리버젠(극동그린아파트",
    "name": "옥수삼성아파트.래미안옥수리버젠(극동그린아파트앞)스마트쉼터",
    "roadAddress": "",
    "jibunAddress": "서울특별시 성동구 옥수동 산 5-148",
    "lat": 37.5438351,
    "lng": 127.0146292,
    "type": "SMART"
  },
  {
    "id": "sd-17-왕십리광장.왕십리역4번출구(무학여고)스마트쉼",
    "name": "왕십리광장.왕십리역4번출구(무학여고)스마트쉼터",
    "roadAddress": "",
    "jibunAddress": "서울특별시 성동구 행당동 192-41",
    "lat": 37.5614101,
    "lng": 127.0370713,
    "type": "SMART"
  },
  {
    "id": "sd-19-왕십리광장.왕십리역7번출구(왕십리민자역사방면",
    "name": "왕십리광장.왕십리역7번출구(왕십리민자역사방면)스마트쉼터",
    "roadAddress": "",
    "jibunAddress": "서울특별시 성동구 행당동 188-1",
    "lat": 37.5611061,
    "lng": 127.0366234,
    "type": "SMART"
  },
  {
    "id": "sd-7-왕십리도선동주민센터|서울특별시성동구마장로14",
    "name": "왕십리도선동주민센터",
    "roadAddress": "서울특별시 성동구 마장로 141",
    "jibunAddress": "서울특별시 성동구 상왕십리동 813",
    "lat": 37.5678526,
    "lng": 127.025458,
    "type": "SHELTER"
  },
  {
    "id": "sd-5-왕십리센트라스아파트(성동고등학교)스마트쉼터|",
    "name": "왕십리센트라스아파트(성동고등학교)스마트쉼터",
    "roadAddress": "",
    "jibunAddress": "서울특별시 성동구 하왕십리동 860-1",
    "lat": 37.5647142,
    "lng": 127.0287162,
    "type": "SMART"
  },
  {
    "id": "sd-3-왕십리제2동주민센터|서울특별시성동구무학봉15",
    "name": "왕십리제2동주민센터",
    "roadAddress": "서울특별시 성동구 무학봉15길 6 (하왕십리동)",
    "jibunAddress": "서울특별시 성동구 하왕십리동 973-9",
    "lat": 37.5617588,
    "lng": 127.0309773,
    "type": "SHELTER"
  },
  {
    "id": "sd-71-용답동.로데오거리.답십리역스마트쉼터|서울특별",
    "name": "용답동.로데오거리.답십리역스마트쉼터",
    "roadAddress": "",
    "jibunAddress": "서울특별시 성동구 용답동 68-2",
    "lat": 37.5657198,
    "lng": 127.0537519,
    "type": "SMART"
  },
  {
    "id": "sd-72-용답동주민센터|서울특별시성동구용답중앙23길2",
    "name": "용답동주민센터",
    "roadAddress": "서울특별시 성동구  용답중앙23길  20   (용답동)",
    "jibunAddress": "서울특별시 성동구 용답동 5-6",
    "lat": 37.5641757,
    "lng": 127.055384,
    "type": "SHELTER"
  },
  {
    "id": "sd-32-응봉동주민센터|서울특별시성동구독서당로424(",
    "name": "응봉동주민센터",
    "roadAddress": "서울특별시 성동구  독서당로  424   (응봉동)",
    "jibunAddress": "서울특별시 성동구 응봉동 101",
    "lat": 37.5531556,
    "lng": 127.033421,
    "type": "SHELTER"
  },
  {
    "id": "sd-31-응봉동주민센터(응봉사거리방면)스마트쉼터|서울",
    "name": "응봉동주민센터(응봉사거리방면)스마트쉼터",
    "roadAddress": "",
    "jibunAddress": "서울특별시 성동구 응봉동 134-103",
    "lat": 37.5532685,
    "lng": 127.0333377,
    "type": "SMART"
  },
  {
    "id": "sd-20-응봉사거리(무학여고앞)스마트쉼터|서울특별시성",
    "name": "응봉사거리(무학여고앞)스마트쉼터",
    "roadAddress": "서울특별시 성동구 고산자로 164  (행당동, 서울숲한신더휴)",
    "jibunAddress": "서울특별시 성동구 행당동 349",
    "lat": 37.5553417,
    "lng": 127.0344695,
    "type": "SMART"
  },
  {
    "id": "sd-30-응봉현대아파트(삼성래미안아파트앞)스마트쉼터|",
    "name": "응봉현대아파트(삼성래미안아파트앞)스마트쉼터",
    "roadAddress": "서울특별시 성동구 독서당로 381-1  (응봉동)",
    "jibunAddress": "서울특별시 성동구 응봉동 산 3-12",
    "lat": 37.5502553,
    "lng": 127.0310551,
    "type": "SMART"
  },
  {
    "id": "sd-1-코스모타워.서울신용보증재단성동지점(상왕십리역",
    "name": "코스모타워.서울신용보증재단성동지점(상왕십리역)스마트쉼터",
    "roadAddress": "서울특별시 성동구 왕십리로 357-1  (하왕십리동)",
    "jibunAddress": "서울특별시 성동구 하왕십리동 960-3",
    "lat": 37.5630218,
    "lng": 127.0328414,
    "type": "SMART"
  },
  {
    "id": "sd-15-한양대정문앞(서울숲삼부아파트)스마트쉼터|서울",
    "name": "한양대정문앞(서울숲삼부아파트)스마트쉼터",
    "roadAddress": "",
    "jibunAddress": "서울특별시 성동구 행당동 33",
    "lat": 37.5568855,
    "lng": 127.0431948,
    "type": "SMART"
  },
  {
    "id": "sd-21-행당1동주민센터|서울특별시성동구고산자로10길",
    "name": "행당1동주민센터",
    "roadAddress": "서울특별시 성동구  고산자로10길  18   (행당동)",
    "jibunAddress": "서울특별시 성동구 행당동 139",
    "lat": 37.5585157,
    "lng": 127.036117,
    "type": "SHELTER"
  },
  {
    "id": "sd-28-행당2동주민센터|서울특별시성동구행당로9길9",
    "name": "행당2동주민센터",
    "roadAddress": "서울특별시 성동구 행당로9길 9",
    "jibunAddress": "서울특별시 성동구 행당동 347-1",
    "lat": 37.5582382,
    "lng": 127.02936,
    "type": "SHELTER"
  },
  {
    "id": "sd-26-행당역(대림아파트후문)스마트쉼터|서울특별시성",
    "name": "행당역(대림아파트후문)스마트쉼터",
    "roadAddress": "",
    "jibunAddress": "서울특별시 성동구 행당동 347-13",
    "lat": 37.557147,
    "lng": 127.0287564,
    "type": "SMART"
  },
  {
    "id": "sd-25-행당역(행당2동주민센터)스마트쉼터|서울특별시",
    "name": "행당역(행당2동주민센터)스마트쉼터",
    "roadAddress": "",
    "jibunAddress": "서울특별시 성동구 행당동 346-14",
    "lat": 37.5569429,
    "lng": 127.0289281,
    "type": "SMART"
  },
  {
    "id": "sd-62-화양사거리(성수초등학교)스마트쉼터|서울특별시",
    "name": "화양사거리(성수초등학교)스마트쉼터",
    "roadAddress": "서울특별시 성동구 광나루로8길 31  (성수동2가)",
    "jibunAddress": "서울특별시 성동구 성수동2가 281-24",
    "lat": 37.54731,
    "lng": 127.0666614,
    "type": "SMART"
  }
]